[
  {
    "id":1,
    "name":"Market St",
    "type":"Pay/Surface Carpark",
    "no_spaces":88,
    "lat":53.273,
    "long":-9.054,
    "eastitm":529691.955,
    "northitm":725294.803,
    "eastig":129726.012,
    "northig":225265.639
  },
  {
    "id":2,
    "name":"Jurys Hotel",
    "type":"Multistorey Carpark",
    "no_spaces":348,
    "lat":53.271,
    "long":-9.055,
    "eastitm":529620.784,
    "northitm":725010.839,
    "eastig":129654.828,
    "northig":224981.613
  },
  {
    "id":3,
    "name":"Gaol Rd/Cathedral",
    "type":"Pay/Surface Carpark",
    "no_spaces":161,
    "lat":53.274,
    "long":-9.057,
    "eastitm":529481.534,
    "northitm":725397.739,
    "eastig":129515.546,
    "northig":225368.595
  },
  {
    "id":4,
    "name":"Harbour",
    "type":"Pay/Surface Carpark",
    "no_spaces":" ",
    "lat":53.27,
    "long":-9.052,
    "eastitm":529845.677,
    "northitm":724892.562,
    "eastig":129879.77,
    "northig":224863.312
  },
  {
    "id":5,
    "name":"Eyre Square Centre",
    "type":"Multistorey Carpark",
    "no_spaces":452,
    "lat":53.275,
    "long":-9.05,
    "eastitm":529956.637,
    "northitm":725474.425,
    "eastig":129990.751,
    "northig":225445.3
  },
  {
    "id":6,
    "name":"Radisson Hotel",
    "type":"Multistorey Carpark",
    "no_spaces":260,
    "lat":53.274,
    "long":-9.043,
    "eastitm":530400.129,
    "northitm":725333.491,
    "eastig":130434.34,
    "northig":225304.339
  },
  {
    "id":7,
    "name":"Fairgreen House",
    "type":"Multistorey Carpark",
    "no_spaces":400,
    "lat":53.274,
    "long":-9.046,
    "eastitm":530242.966,
    "northitm":725338.57,
    "eastig":130277.142,
    "northig":225309.419
  },
  {
    "id":8,
    "name":"Docks",
    "type":"Pay/Surface Carpark",
    "no_spaces":89,
    "lat":53.271,
    "long":-9.049,
    "eastitm":530015.932,
    "northitm":725055.66,
    "eastig":130050.06,
    "northig":225026.446
  },
  {
    "id":9,
    "name":"Corrib Centre",
    "type":"Multistorey Carpark",
    "no_spaces":580,
    "lat":53.276,
    "long":-9.051,
    "eastitm":529935.321,
    "northitm":725617.189,
    "eastig":129969.43,
    "northig":225588.095
  },
  {
    "id":10,
    "name":"Dyke Road",
    "type":"Pay/Surface Carpark",
    "no_spaces":510,
    "lat":53.279,
    "long":-9.051,
    "eastitm":529896.241,
    "northitm":725880.965,
    "eastig":129930.341,
    "northig":225851.928
  },
  {
    "id":11,
    "name":"Bowling Green",
    "type":"Pay/Surface Carpark (short stay)",
    "no_spaces":40,
    "lat":53.274,
    "long":-9.055,
    "eastitm":529644.128,
    "northitm":725381.091,
    "eastig":129678.175,
    "northig":225351.945
  },
  {
    "id":12,
    "name":"Mill St",
    "type":"Pay/Surface Carpark (short stay)",
    "no_spaces":82,
    "lat":53.271,
    "long":-9.058,
    "eastitm":529411.726,
    "northitm":725075.918,
    "eastig":129445.724,
    "northig":225046.705
  },
  {
    "id":13,
    "name":"Salthill",
    "type":"Surface Carpark (free parking)",
    "no_spaces":" ",
    "lat":53.26,
    "long":-9.074,
    "eastitm":528346.431,
    "northitm":723815.637,
    "eastig":128380.202,
    "northig":223786.148
  },
  {
    "id":14,
    "name":"Salthill",
    "type":"Surface Carpark (free parking)",
    "no_spaces":" ",
    "lat":53.259,
    "long":-9.077,
    "eastitm":528165.221,
    "northitm":723751.7,
    "eastig":128198.954,
    "northig":223722.195
  },
  {
    "id":15,
    "name":"Harbour Hotel",
    "type":"Multistorey Carpark",
    "no_spaces":114,
    "lat":53.271,
    "long":-9.048,
    "eastitm":530095.177,
    "northitm":724977.485,
    "eastig":130129.323,
    "northig":224948.254
  },
  {
    "id":16,
    "name":"Eyre Square Centre",
    "type":"Multistorey Carpark",
    "no_spaces":480,
    "lat":53.271,
    "long":-9.051,
    "eastitm":529922.415,
    "northitm":725088.64,
    "eastig":129956.523,
    "northig":225059.432
  },
  {
    "id":17,
    "name":"Hynes Yard",
    "type":"Multistorey Carpark",
    "no_spaces":114,
    "lat":53.271,
    "long":-9.051,
    "eastitm":529876.173,
    "northitm":725019.986,
    "eastig":129910.271,
    "northig":224990.764
  }
]